[
  {
    "name": "אור יהודה",
    "brand": "דורלון",
    "coordinates": {
      "lat": 32.02173979,
      "lon": 34.86487627
    }
  },
  {
    "name": "אשדוד אורט",
    "brand": "דורלון",
    "coordinates": {
      "lat": 31.81354188,
      "lon": 34.64869022
    }
  },
  {
    "name": "אשדוד רום שפר",
    "brand": "דורלון",
    "coordinates": {
      "lat": 31.81232,
      "lon": 34.66684
    }
  },
  {
    "name": "אשקלון עמיצור",
    "brand": "דורלון",
    "coordinates": {
      "lat": 31.67644592,
      "lon": 34.57607668
    }
  },
  {
    "name": "בית דגן",
    "brand": "דורלון",
    "coordinates": {
      "lat": 31.99003199,
      "lon": 34.82951626
    }
  },
  {
    "name": "בני ברק האיצטדיון",
    "brand": "דורלון",
    "coordinates": {
      "lat": 32.10027286,
      "lon": 34.82851582
    }
  },
  {
    "name": "בנימינה מערב",
    "brand": "דורלון",
    "coordinates": {
      "lat": 32.5083141041,
      "lon": 34.9320816994
    }
  },
  {
    "name": "בקעת בית הכרם (מג'דל כרום)",
    "brand": "דורלון",
    "coordinates": {
      "lat": 32.91475452,
      "lon": 35.25483869
    }
  },
  {
    "name": "בת ים הילי",
    "brand": "דורלון",
    "coordinates": {
      "lat": 32.00579834,
      "lon": 34.74389076
    }
  },
  {
    "name": "גבעת עוז",
    "brand": "דורלון",
    "coordinates": {
      "lat": 32.57334215,
      "lon": 35.19688911
    }
  },
  {
    "name": "גילון",
    "brand": "דורלון",
    "coordinates": {
      "lat": 32.9156521,
      "lon": 35.22664521
    }
  },
  {
    "name": "גן הצפון",
    "brand": "דורלון",
    "coordinates": {
      "lat": 33.22361,
      "lon": 35.61587
    }
  },
  {
    "name": "געש צומת ספרים",
    "brand": "דורלון",
    "coordinates": {
      "lat": 32.22532,
      "lon": 34.8302
    }
  },
  {
    "name": "גשר הזיו",
    "brand": "דורלון",
    "coordinates": {
      "lat": 33.04454198,
      "lon": 35.10694597
    }
  },
  {
    "name": "דבירה",
    "brand": "דורלון",
    "coordinates": {
      "lat": 31.42203,
      "lon": 34.78612
    }
  },
  {
    "name": "חבצלת השרון",
    "brand": "דורלון",
    "coordinates": {
      "lat": 32.3604,
      "lon": 34.861819
    }
  },
  {
    "name": "חדרה מזרח",
    "brand": "דורלון",
    "coordinates": {
      "lat": 32.441406,
      "lon": 34.933079
    }
  },
  {
    "name": "חולון דרך השבעה",
    "brand": "דורלון",
    "coordinates": {
      "lat": 32.027733974904,
      "lon": 34.797741839679
    }
  },
  {
    "name": "חיפה גרנד קניון",
    "brand": "דורלון",
    "coordinates": {
      "lat": 32.78870529,
      "lon": 35.00720537
    }
  },
  {
    "name": "חיפה עוקף קריות",
    "brand": "דורלון",
    "coordinates": {
      "lat": 32.804,
      "lon": 35.0166
    }
  },
  {
    "name": "חיפה שד' ההסתדרות",
    "brand": "דורלון",
    "coordinates": {
      "lat": 32.8073725452,
      "lon": 35.063766973
    }
  },
  {
    "name": "חיפה שערי חיפה",
    "brand": "דורלון",
    "coordinates": {
      "lat": 32.7880682475,
      "lon": 35.038189888
    }
  },
  {
    "name": "טירת הכרמל",
    "brand": "דורלון",
    "coordinates": {
      "lat": 32.7686200554,
      "lon": 34.9669718742
    }
  },
  {
    "name": "יבנה מתנ\"ח",
    "brand": "דורלון",
    "coordinates": {
      "lat": 31.89008,
      "lon": 34.73218
    }
  },
  {
    "name": "יהוד",
    "brand": "דורלון",
    "coordinates": {
      "lat": 32.026,
      "lon": 34.89865
    }
  },
  {
    "name": "יזרעאל",
    "brand": "דורלון",
    "coordinates": {
      "lat": 32.557882219213,
      "lon": 35.32301902771
    }
  },
  {
    "name": "יסעור",
    "brand": "דורלון",
    "coordinates": {
      "lat": 32.89971851,
      "lon": 35.17006201
    }
  },
  {
    "name": "יקום",
    "brand": "דורלון",
    "coordinates": {
      "lat": 32.2485425,
      "lon": 34.83574562
    }
  },
  {
    "name": "יקנעם",
    "brand": "דורלון",
    "coordinates": {
      "lat": 32.667587,
      "lon": 35.107243
    }
  },
  {
    "name": "ירושלים גינות סחרוב",
    "brand": "דורלון",
    "coordinates": {
      "lat": 31.79484447,
      "lon": 35.18743889
    }
  },
  {
    "name": "ירושלים הרכבים",
    "brand": "דורלון",
    "coordinates": {
      "lat": 31.75334,
      "lon": 35.21283
    }
  },
  {
    "name": "ירכא",
    "brand": "דורלון",
    "coordinates": {
      "lat": 32.94561445,
      "lon": 35.17023967
    }
  },
  {
    "name": "כפר יונה",
    "brand": "דורלון",
    "coordinates": {
      "lat": 32.321676713192,
      "lon": 34.921097197868
    }
  },
  {
    "name": "כפר סבא",
    "brand": "דורלון",
    "coordinates": {
      "lat": 32.1720027924,
      "lon": 34.9243569374
    }
  },
  {
    "name": "כרמיאל",
    "brand": "דורלון",
    "coordinates": {
      "lat": 32.92176302,
      "lon": 35.30908072
    }
  },
  {
    "name": "מגל מזרח (מדרום לצפון)",
    "brand": "דורלון",
    "coordinates": {
      "lat": 32.37966,
      "lon": 35.01776
    }
  },
  {
    "name": "מגל מערב (מצפון לדרום)",
    "brand": "דורלון",
    "coordinates": {
      "lat": 32.380809554,
      "lon": 35.016976117
    }
  },
  {
    "name": "מעלות העיר",
    "brand": "דורלון",
    "coordinates": {
      "lat": 33.020628793,
      "lon": 35.2812194824
    }
  },
  {
    "name": "מרר בלעוס",
    "brand": "דורלון",
    "coordinates": {
      "lat": 32.860828,
      "lon": 35.46133
    }
  },
  {
    "name": "נהריה",
    "brand": "דורלון",
    "coordinates": {
      "lat": 33.000548,
      "lon": 35.097005
    }
  },
  {
    "name": "נווה ירק",
    "brand": "דורלון",
    "coordinates": {
      "lat": 32.13725,
      "lon": 34.9167
    }
  },
  {
    "name": "נען מזרח (מדרום לצפון)",
    "brand": "דורלון",
    "coordinates": {
      "lat": 31.882303855271,
      "lon": 34.8796676266
    }
  },
  {
    "name": "נען מערב(מצפון לדרום)",
    "brand": "דורלון",
    "coordinates": {
      "lat": 31.882306214299,
      "lon": 34.878607884269
    }
  },
  {
    "name": "נתב\"ג",
    "brand": "דורלון",
    "coordinates": {
      "lat": 31.9911161521,
      "lon": 34.9041223526
    }
  },
  {
    "name": "נתניה עיר ימים",
    "brand": "דורלון",
    "coordinates": {
      "lat": 32.282354410871,
      "lon": 34.846276845744
    }
  },
  {
    "name": "נתניה קרית השרון",
    "brand": "דורלון",
    "coordinates": {
      "lat": 32.31194523,
      "lon": 34.87017339
    }
  },
  {
    "name": "סופר פרונט חדרה",
    "brand": "דורלון",
    "coordinates": {
      "lat": 32.45568776,
      "lon": 34.9086001
    }
  },
  {
    "name": "עילוט",
    "brand": "דורלון",
    "coordinates": {
      "lat": 32.729220938079,
      "lon": 35.259366659164
    }
  },
  {
    "name": "עינת",
    "brand": "דורלון",
    "coordinates": {
      "lat": 32.089160756075,
      "lon": 34.944346900042
    }
  },
  {
    "name": "עכו",
    "brand": "דורלון",
    "coordinates": {
      "lat": 32.90012717,
      "lon": 35.09111775
    }
  },
  {
    "name": "עמיעד",
    "brand": "דורלון",
    "coordinates": {
      "lat": 32.92555439,
      "lon": 35.54323912
    }
  },
  {
    "name": "ערד",
    "brand": "דורלון",
    "coordinates": {
      "lat": 31.24845,
      "lon": 35.19788
    }
  },
  {
    "name": "פתח תקוה בלינסון (ד\"ש)",
    "brand": "דורלון",
    "coordinates": {
      "lat": 32.09117265,
      "lon": 34.86468607
    }
  },
  {
    "name": "צומת חנניה",
    "brand": "דורלון",
    "coordinates": {
      "lat": 32.916071048874,
      "lon": 35.416424274445
    }
  },
  {
    "name": "ציפורית",
    "brand": "דורלון",
    "coordinates": {
      "lat": 32.7638400463,
      "lon": 35.3227851432
    }
  },
  {
    "name": "ראשל\"צ מזרח",
    "brand": "דורלון",
    "coordinates": {
      "lat": 31.94657897,
      "lon": 34.81790301
    }
  },
  {
    "name": "ראשל\"צ שפירא",
    "brand": "דורלון",
    "coordinates": {
      "lat": 31.9918880463,
      "lon": 34.7537651062
    }
  },
  {
    "name": "רחובות האצ\"ל",
    "brand": "דורלון",
    "coordinates": {
      "lat": 31.897796269576,
      "lon": 34.800040391603
    }
  },
  {
    "name": "רמת גן אבא הלל",
    "brand": "דורלון",
    "coordinates": {
      "lat": 32.08496,
      "lon": 34.8034
    }
  },
  {
    "name": "שדי חמד",
    "brand": "דורלון",
    "coordinates": {
      "lat": 32.15574253,
      "lon": 34.94702092
    }
  },
  {
    "name": "שער הצפון",
    "brand": "דורלון",
    "coordinates": {
      "lat": 32.806367,
      "lon": 35.074341
    }
  },
  {
    "name": "תל אביב דרך נמיר",
    "brand": "דורלון",
    "coordinates": {
      "lat": 32.1315883,
      "lon": 34.795865
    }
  },
  {
    "name": "תל אביב המסגר",
    "brand": "דורלון",
    "coordinates": {
      "lat": 32.06251901,
      "lon": 34.78576183
    }
  },
  {
    "name": "תל יצחק",
    "brand": "דורלון",
    "coordinates": {
      "lat": 32.25497,
      "lon": 34.87504
    }
  },
  {
    "name": "אביאל (סופרלנד)",
    "brand": "פז",
    "coordinates": {
      "lat": 31.9806225,
      "lon": 34.7423524
    }
  },
  {
    "name": "אורלי גהה",
    "brand": "פז",
    "coordinates": {
      "lat": 32.0814058,
      "lon": 34.8455857
    }
  },
  {
    "name": "אלוף שדה",
    "brand": "פז",
    "coordinates": {
      "lat": 32.0592117,
      "lon": 34.8153404
    }
  },
  {
    "name": "אלישמע",
    "brand": "פז",
    "coordinates": {
      "lat": 32.15287,
      "lon": 34.92181
    }
  },
  {
    "name": "אלנבי",
    "brand": "פז",
    "coordinates": {
      "lat": 31.7550788,
      "lon": 35.2216248
    }
  },
  {
    "name": "אצטדיון כפר סבא",
    "brand": "פז",
    "coordinates": {
      "lat": 32.1784603,
      "lon": 34.9282406
    }
  },
  {
    "name": "אצטדיון פתח תקווה",
    "brand": "פז",
    "coordinates": {
      "lat": 32.098127,
      "lon": 34.8756774
    }
  },
  {
    "name": "אריאל",
    "brand": "פז",
    "coordinates": {
      "lat": 32.1024,
      "lon": 35.20663
    }
  },
  {
    "name": "אשל הרצליה",
    "brand": "פז",
    "coordinates": {
      "lat": 32.1578923,
      "lon": 34.8102571
    }
  },
  {
    "name": "אשקלון דרום",
    "brand": "פז",
    "coordinates": {
      "lat": 31.63101,
      "lon": 34.55904
    }
  },
  {
    "name": "באר שבע צפון",
    "brand": "פז",
    "coordinates": {
      "lat": 31.2452645,
      "lon": 34.7816333
    }
  },
  {
    "name": "ביר אל אמיר",
    "brand": "פז",
    "coordinates": {
      "lat": 32.684246,
      "lon": 35.285759
    }
  },
  {
    "name": "ביר אל מכסור",
    "brand": "פז",
    "coordinates": {
      "lat": 32.77493,
      "lon": 35.21411
    }
  },
  {
    "name": "בית יצחק",
    "brand": "פז",
    "coordinates": {
      "lat": 32.323356,
      "lon": 34.898272
    }
  },
  {
    "name": "בית שמש",
    "brand": "פז",
    "coordinates": {
      "lat": 31.7558283,
      "lon": 34.984434
    }
  },
  {
    "name": "בר-כוכבא",
    "brand": "פז",
    "coordinates": {
      "lat": 31.783729,
      "lon": 35.2087493
    }
  },
  {
    "name": "גבעת שאול",
    "brand": "פז",
    "coordinates": {
      "lat": 31.7860438,
      "lon": 35.1912237
    }
  },
  {
    "name": "ג'דיידה",
    "brand": "פז",
    "coordinates": {
      "lat": 32.9253566,
      "lon": 35.1324221
    }
  },
  {
    "name": "גיא-עירון",
    "brand": "פז",
    "coordinates": {
      "lat": 32.4982326,
      "lon": 35.063878
    }
  },
  {
    "name": "גילי",
    "brand": "פז",
    "coordinates": {
      "lat": 31.9458555,
      "lon": 34.8177835
    }
  },
  {
    "name": "געש",
    "brand": "פז",
    "coordinates": {
      "lat": 32.0918795,
      "lon": 34.8596152
    }
  },
  {
    "name": "דרך המנהרות",
    "brand": "פז",
    "coordinates": {
      "lat": 31.72688,
      "lon": 35.19473
    }
  },
  {
    "name": "היונה",
    "brand": "פז",
    "coordinates": {
      "lat": 31.9737369,
      "lon": 34.8105905
    }
  },
  {
    "name": "המלך דוד",
    "brand": "פז",
    "coordinates": {
      "lat": 31.7751668,
      "lon": 35.2225702
    }
  },
  {
    "name": "הנופר",
    "brand": "פז",
    "coordinates": {
      "lat": 32.1948285,
      "lon": 34.8833963
    }
  },
  {
    "name": "הנשיאים",
    "brand": "פז",
    "coordinates": {
      "lat": 31.2779185,
      "lon": 34.79484
    }
  },
  {
    "name": "הסיירים",
    "brand": "פז",
    "coordinates": {
      "lat": 32.0026081,
      "lon": 34.8077773
    }
  },
  {
    "name": "הר הכרמל",
    "brand": "פז",
    "coordinates": {
      "lat": 32.803383,
      "lon": 34.9862789
    }
  },
  {
    "name": "השלום",
    "brand": "פז",
    "coordinates": {
      "lat": 32.0718626,
      "lon": 34.7975191
    }
  },
  {
    "name": "זך רופין",
    "brand": "פז",
    "coordinates": {
      "lat": 32.3454167,
      "lon": 34.9084071
    }
  },
  {
    "name": "חולון",
    "brand": "פז",
    "coordinates": {
      "lat": 32.0304332,
      "lon": 34.7744083
    }
  },
  {
    "name": "חופית",
    "brand": "פז",
    "coordinates": {
      "lat": 32.3842908,
      "lon": 34.8668447
    }
  },
  {
    "name": "טבעון",
    "brand": "פז",
    "coordinates": {
      "lat": 32.7154982,
      "lon": 35.1249576
    }
  },
  {
    "name": "טופז",
    "brand": "פז",
    "coordinates": {
      "lat": 32.1301668,
      "lon": 34.8296483
    }
  },
  {
    "name": "טירה",
    "brand": "פז",
    "coordinates": {
      "lat": 32.2295395,
      "lon": 34.9442731
    }
  },
  {
    "name": "טל הגשר",
    "brand": "פז",
    "coordinates": {
      "lat": 32.064728,
      "lon": 34.788547
    }
  },
  {
    "name": "טל עופרה",
    "brand": "פז",
    "coordinates": {
      "lat": 32.1763999,
      "lon": 34.9796498
    }
  },
  {
    "name": "יציב",
    "brand": "פז",
    "coordinates": {
      "lat": 32.0739024,
      "lon": 34.8431701
    }
  },
  {
    "name": "ירמיהו",
    "brand": "פז",
    "coordinates": {
      "lat": 32.0950628,
      "lon": 34.7751165
    }
  },
  {
    "name": "כוכב יאיר",
    "brand": "פז",
    "coordinates": {
      "lat": 32.2205349,
      "lon": 34.9819577
    }
  },
  {
    "name": "כנפי נשרים",
    "brand": "פז",
    "coordinates": {
      "lat": 31.7889842,
      "lon": 35.1893031
    }
  },
  {
    "name": "כפר כנא",
    "brand": "פז",
    "coordinates": {
      "lat": 32.7503799,
      "lon": 35.3363355
    }
  },
  {
    "name": "כרמיאל מערב",
    "brand": "פז",
    "coordinates": {
      "lat": 32.9189738,
      "lon": 35.2837013
    }
  },
  {
    "name": "לב המפרץ",
    "brand": "פז",
    "coordinates": {
      "lat": 32.7894591,
      "lon": 35.0374326
    }
  },
  {
    "name": "לוד ויסוצקי",
    "brand": "פז",
    "coordinates": {
      "lat": 31.9648616,
      "lon": 34.9004544
    }
  },
  {
    "name": "לשם אילת",
    "brand": "פז",
    "coordinates": {
      "lat": 29.5552326,
      "lon": 34.9555432
    }
  },
  {
    "name": "מבשרת  ירושלים",
    "brand": "פז",
    "coordinates": {
      "lat": 31.7997409,
      "lon": 35.1496676
    }
  },
  {
    "name": "מודיעין הראל",
    "brand": "פז",
    "coordinates": {
      "lat": 31.889423,
      "lon": 34.960295
    }
  },
  {
    "name": "מודיעין ליגד",
    "brand": "פז",
    "coordinates": {
      "lat": 31.9235318,
      "lon": 34.9897254
    }
  },
  {
    "name": "מויאל",
    "brand": "פז",
    "coordinates": {
      "lat": 32.0375745,
      "lon": 34.7617322
    }
  },
  {
    "name": "מישור אדומים",
    "brand": "פז",
    "coordinates": {
      "lat": 31.78545,
      "lon": 35.334712
    }
  },
  {
    "name": "מנדלבאום",
    "brand": "פז",
    "coordinates": {
      "lat": 31.7856587,
      "lon": 35.2278815
    }
  },
  {
    "name": "מנחם",
    "brand": "פז",
    "coordinates": {
      "lat": 31.9446477,
      "lon": 34.800707
    }
  },
  {
    "name": "מסילת ציון",
    "brand": "פז",
    "coordinates": {
      "lat": 31.8079743,
      "lon": 35.0177458
    }
  },
  {
    "name": "מעלות",
    "brand": "פז",
    "coordinates": {
      "lat": 33.0155218,
      "lon": 35.2780565
    }
  },
  {
    "name": "מערב ראשון",
    "brand": "פז",
    "coordinates": {
      "lat": 31.9870717,
      "lon": 34.7715137
    }
  },
  {
    "name": "מצפה אביב",
    "brand": "פז",
    "coordinates": {
      "lat": 32.828544,
      "lon": 35.1999692
    }
  },
  {
    "name": "מצפה טורען",
    "brand": "פז",
    "coordinates": {
      "lat": 32.7944357,
      "lon": 35.4042631
    }
  },
  {
    "name": "נהריה",
    "brand": "פז",
    "coordinates": {
      "lat": 32.9903804,
      "lon": 35.0966168
    }
  },
  {
    "name": "נהריה לוחמי הגטאות.",
    "brand": "פז",
    "coordinates": {
      "lat": 33.00146,
      "lon": 35.09743
    }
  },
  {
    "name": "נווה עוז",
    "brand": "פז",
    "coordinates": {
      "lat": 32.0893791,
      "lon": 34.8618944
    }
  },
  {
    "name": "נויה",
    "brand": "פז",
    "coordinates": {
      "lat": 31.86631,
      "lon": 34.81365
    }
  },
  {
    "name": "נחלת יהודה",
    "brand": "פז",
    "coordinates": {
      "lat": 31.9912406,
      "lon": 34.8123289
    }
  },
  {
    "name": "ניר גלים",
    "brand": "פז",
    "coordinates": {
      "lat": 31.8272601,
      "lon": 34.6752018
    }
  },
  {
    "name": "סביון",
    "brand": "פז",
    "coordinates": {
      "lat": 32.0333599,
      "lon": 34.8667828
    }
  },
  {
    "name": "סילבר",
    "brand": "פז",
    "coordinates": {
      "lat": 31.6837147,
      "lon": 34.6102765
    }
  },
  {
    "name": "עד הלום",
    "brand": "פז",
    "coordinates": {
      "lat": 31.7660602,
      "lon": 34.6664046
    }
  },
  {
    "name": "עוז רמת גן",
    "brand": "פז",
    "coordinates": {
      "lat": 32.0841789,
      "lon": 34.8073694
    }
  },
  {
    "name": "עוספיה",
    "brand": "פז",
    "coordinates": {
      "lat": 32.7267648,
      "lon": 35.0560377
    }
  },
  {
    "name": "עוקף נצרת",
    "brand": "פז",
    "coordinates": {
      "lat": 32.6921101,
      "lon": 35.2978763
    }
  },
  {
    "name": "עכו עיר",
    "brand": "פז",
    "coordinates": {
      "lat": 32.9229387,
      "lon": 35.0772096
    }
  },
  {
    "name": "פז \"משה\"",
    "brand": "פז",
    "coordinates": {
      "lat": 31.8889995,
      "lon": 34.7834702
    }
  },
  {
    "name": "פז אור יהודה",
    "brand": "פז",
    "coordinates": {
      "lat": 32.0221849,
      "lon": 34.8582503
    }
  },
  {
    "name": "פז בר",
    "brand": "פז",
    "coordinates": {
      "lat": 31.2509745,
      "lon": 34.8207422
    }
  },
  {
    "name": "פז גדרה",
    "brand": "פז",
    "coordinates": {
      "lat": 31.79689,
      "lon": 34.78128
    }
  },
  {
    "name": "פז גן",
    "brand": "פז",
    "coordinates": {
      "lat": 32.0641358,
      "lon": 34.7619018
    }
  },
  {
    "name": "פז השקמה",
    "brand": "פז",
    "coordinates": {
      "lat": 31.46824,
      "lon": 34.77488
    }
  },
  {
    "name": "פקיעין",
    "brand": "פז",
    "coordinates": {
      "lat": 32.993475,
      "lon": 35.313071
    }
  },
  {
    "name": "צומת האלה",
    "brand": "פז",
    "coordinates": {
      "lat": 31.6859286,
      "lon": 34.9471356
    }
  },
  {
    "name": "צומת כח",
    "brand": "פז",
    "coordinates": {
      "lat": 33.12442,
      "lon": 35.57012
    }
  },
  {
    "name": "צומת נתניה",
    "brand": "פז",
    "coordinates": {
      "lat": 32.3208117,
      "lon": 34.8660988
    }
  },
  {
    "name": "צמח",
    "brand": "פז",
    "coordinates": {
      "lat": 32.704136,
      "lon": 35.586087
    }
  },
  {
    "name": "קדימה",
    "brand": "פז",
    "coordinates": {
      "lat": 32.2873498,
      "lon": 34.8980148
    }
  },
  {
    "name": "קיבוץ גלויות",
    "brand": "פז",
    "coordinates": {
      "lat": 32.0483131,
      "lon": 34.7766348
    }
  },
  {
    "name": "קייט ונופש",
    "brand": "פז",
    "coordinates": {
      "lat": 32.7908834,
      "lon": 34.9641925
    }
  },
  {
    "name": "קיסריה",
    "brand": "פז",
    "coordinates": {
      "lat": 32.4759125,
      "lon": 34.8941038
    }
  },
  {
    "name": "קרית עקרון",
    "brand": "פז",
    "coordinates": {
      "lat": 31.8601868,
      "lon": 34.8107521
    }
  },
  {
    "name": "קרית שמונה",
    "brand": "פז",
    "coordinates": {
      "lat": 33.2027461,
      "lon": 35.5690755
    }
  },
  {
    "name": "ראש העין אפק",
    "brand": "פז",
    "coordinates": {
      "lat": 32.1091428,
      "lon": 34.9624273
    }
  },
  {
    "name": "רונית",
    "brand": "פז",
    "coordinates": {
      "lat": 32.1566879,
      "lon": 34.8083457
    }
  },
  {
    "name": "רמה רחובות",
    "brand": "פז",
    "coordinates": {
      "lat": 31.885381,
      "lon": 34.814749
    }
  },
  {
    "name": "רמה רמת גן",
    "brand": "פז",
    "coordinates": {
      "lat": 32.0864204,
      "lon": 34.812094
    }
  },
  {
    "name": "רמות",
    "brand": "פז",
    "coordinates": {
      "lat": 31.7998246,
      "lon": 35.2115957
    }
  },
  {
    "name": "רמת דניה",
    "brand": "פז",
    "coordinates": {
      "lat": 31.7582324,
      "lon": 35.1814707
    }
  },
  {
    "name": "רשף יבנה",
    "brand": "פז",
    "coordinates": {
      "lat": 31.8874733,
      "lon": 34.7370652
    }
  },
  {
    "name": "שדרות בן צבי",
    "brand": "פז",
    "coordinates": {
      "lat": 32.0466846,
      "lon": 34.7660649
    }
  },
  {
    "name": "שואבה",
    "brand": "פז",
    "coordinates": {
      "lat": 31.7988689,
      "lon": 35.0758689
    }
  },
  {
    "name": "שוקת",
    "brand": "פז",
    "coordinates": {
      "lat": 31.3096317,
      "lon": 34.8986347
    }
  },
  {
    "name": "שיאונה",
    "brand": "פז",
    "coordinates": {
      "lat": 32.1160698,
      "lon": 34.904362
    }
  },
  {
    "name": "שמשונים",
    "brand": "פז",
    "coordinates": {
      "lat": 31.6605591,
      "lon": 34.5699346
    }
  },
  {
    "name": "שער הגיא",
    "brand": "פז",
    "coordinates": {
      "lat": 31.8157253,
      "lon": 35.0241193
    }
  },
  {
    "name": "שער השרון",
    "brand": "פז",
    "coordinates": {
      "lat": 32.2808478,
      "lon": 35.0053699
    }
  },
  {
    "name": "שרונים",
    "brand": "פז",
    "coordinates": {
      "lat": 32.1851914,
      "lon": 34.9165706
    }
  },
  {
    "name": "תחנת מוזיאון ירושלים",
    "brand": "פז",
    "coordinates": {
      "lat": 31.774316,
      "lon": 35.201434
    }
  },
  {
    "name": "תענכים",
    "brand": "פז",
    "coordinates": {
      "lat": 32.5834979,
      "lon": 35.2439415
    }
  },
  {
    "name": "לירי אילת",
    "brand": "סונול",
    "coordinates": {
      "lat": 29.570225,
      "lon": 34.961762
    }
  },
  {
    "name": "שדה תעופה רמון",
    "brand": "סונול",
    "coordinates": {
      "lat": 29.712557,
      "lon": 35.001746
    }
  },
  {
    "name": "שער הכרמל",
    "brand": "סונול",
    "coordinates": {
      "lat": 32.6384524,
      "lon": 35.0625391
    }
  },
  {
    "name": "אשל השומרון",
    "brand": "סונול",
    "coordinates": {
      "lat": 32.10813,
      "lon": 35.16365
    }
  },
  {
    "name": "עד הלום",
    "brand": "סונול",
    "coordinates": {
      "lat": 31.77852,
      "lon": 34.66406
    }
  },
  {
    "name": "שלמה צריפין - שומרת שבת",
    "brand": "סונול",
    "coordinates": {
      "lat": 31.95943,
      "lon": 34.85081
    }
  },
  {
    "name": "בן גוריון",
    "brand": "סונול",
    "coordinates": {
      "lat": 31.2452,
      "lon": 34.81109
    }
  },
  {
    "name": "בית חורון",
    "brand": "סונול",
    "coordinates": {
      "lat": 31.883249,
      "lon": 35.087582
    }
  },
  {
    "name": "לירי ביתן אהרון",
    "brand": "סונול",
    "coordinates": {
      "lat": 32.360526,
      "lon": 34.868669
    }
  },
  {
    "name": "קוממיות",
    "brand": "סונול",
    "coordinates": {
      "lat": 32.004431,
      "lon": 34.745829
    }
  },
  {
    "name": "מפגש עדה",
    "brand": "סונול",
    "coordinates": {
      "lat": 32.519937,
      "lon": 35.002734
    }
  },
  {
    "name": "אור בגבעה - שומרת שבת",
    "brand": "סונול",
    "coordinates": {
      "lat": 32.086581,
      "lon": 34.852327
    }
  },
  {
    "name": "דיר חנא",
    "brand": "סונול",
    "coordinates": {
      "lat": 32.85973,
      "lon": 35.36711
    }
  },
  {
    "name": "אילוש",
    "brand": "סונול",
    "coordinates": {
      "lat": 32.17873,
      "lon": 34.83129
    }
  },
  {
    "name": "זכרון יעקב",
    "brand": "סונול",
    "coordinates": {
      "lat": 32.572216,
      "lon": 34.9534
    }
  },
  {
    "name": "חדרה העיר",
    "brand": "סונול",
    "coordinates": {
      "lat": 32.440973,
      "lon": 34.910698
    }
  },
  {
    "name": "המלאכה",
    "brand": "סונול",
    "coordinates": {
      "lat": 32.01647,
      "lon": 34.80096
    }
  },
  {
    "name": "דניה",
    "brand": "סונול",
    "coordinates": {
      "lat": 32.7693,
      "lon": 35.00759
    }
  },
  {
    "name": "שער העליה",
    "brand": "סונול",
    "coordinates": {
      "lat": 32.819453,
      "lon": 34.955617
    }
  },
  {
    "name": "עין בוקק",
    "brand": "סונול",
    "coordinates": {
      "lat": 31.202666,
      "lon": 35.359519
    }
  },
  {
    "name": "גן הפעמון",
    "brand": "סונול",
    "coordinates": {
      "lat": 31.7693564,
      "lon": 35.224105
    }
  },
  {
    "name": "קלנדיה",
    "brand": "סונול",
    "coordinates": {
      "lat": 31.855112,
      "lon": 35.224369
    }
  },
  {
    "name": "מעוז ציון - שומרת שבת",
    "brand": "סונול",
    "coordinates": {
      "lat": 31.795225,
      "lon": 35.146886
    }
  },
  {
    "name": "ירכא",
    "brand": "סונול",
    "coordinates": {
      "lat": 32.9543,
      "lon": 35.18535
    }
  },
  {
    "name": "כאוכב",
    "brand": "סונול",
    "coordinates": {
      "lat": 32.83663,
      "lon": 35.2484
    }
  },
  {
    "name": "כפר חסידים - שומרת שבת",
    "brand": "סונול",
    "coordinates": {
      "lat": 32.76105,
      "lon": 35.09102
    }
  },
  {
    "name": "כפר יונה",
    "brand": "סונול",
    "coordinates": {
      "lat": 32.321588,
      "lon": 34.926284
    }
  },
  {
    "name": "המשתלה בית חי",
    "brand": "סונול",
    "coordinates": {
      "lat": 32.759947,
      "lon": 35.359663
    }
  },
  {
    "name": "כפר כנא",
    "brand": "סונול",
    "coordinates": {
      "lat": 32.756359,
      "lon": 35.344807
    }
  },
  {
    "name": "כפר קאסם",
    "brand": "סונול",
    "coordinates": {
      "lat": 32.11416,
      "lon": 34.96443
    }
  },
  {
    "name": "כפר קמא",
    "brand": "סונול",
    "coordinates": {
      "lat": 32.71185,
      "lon": 35.43443
    }
  },
  {
    "name": "כרמיאל א.ת.",
    "brand": "סונול",
    "coordinates": {
      "lat": 32.922344,
      "lon": 35.314001
    }
  },
  {
    "name": "מאור",
    "brand": "סונול",
    "coordinates": {
      "lat": 32.429111,
      "lon": 35.015026
    }
  },
  {
    "name": "שילת 3",
    "brand": "סונול",
    "coordinates": {
      "lat": 31.91466,
      "lon": 35.01615
    }
  },
  {
    "name": "הנשיא",
    "brand": "סונול",
    "coordinates": {
      "lat": 31.795832,
      "lon": 34.974833
    }
  },
  {
    "name": "מעלה אפריים",
    "brand": "סונול",
    "coordinates": {
      "lat": 32.06634,
      "lon": 35.40111
    }
  },
  {
    "name": "נצרת בוסתן 1",
    "brand": "סונול",
    "coordinates": {
      "lat": 32.69898,
      "lon": 35.29734
    }
  },
  {
    "name": "פולג גיבורי ישראל",
    "brand": "סונול",
    "coordinates": {
      "lat": 32.28376,
      "lon": 34.86158
    }
  },
  {
    "name": "לב היהלום",
    "brand": "סונול",
    "coordinates": {
      "lat": 32.311978,
      "lon": 34.874226
    }
  },
  {
    "name": "סתריה",
    "brand": "סונול",
    "coordinates": {
      "lat": 31.89629,
      "lon": 34.84089
    }
  },
  {
    "name": "עתלית",
    "brand": "סונול",
    "coordinates": {
      "lat": 32.71014,
      "lon": 34.94796
    }
  },
  {
    "name": "עירון",
    "brand": "סונול",
    "coordinates": {
      "lat": 32.45901,
      "lon": 34.98773
    }
  },
  {
    "name": "פרדס חנה",
    "brand": "סונול",
    "coordinates": {
      "lat": 32.46297,
      "lon": 34.967105
    }
  },
  {
    "name": "הסיבים",
    "brand": "סונול",
    "coordinates": {
      "lat": 32.09165,
      "lon": 34.857056
    }
  },
  {
    "name": "גיסין",
    "brand": "סונול",
    "coordinates": {
      "lat": 32.09762,
      "lon": 34.86552
    }
  },
  {
    "name": "ירקונים",
    "brand": "סונול",
    "coordinates": {
      "lat": 32.104639,
      "lon": 34.898807
    }
  },
  {
    "name": "שדה עמודים",
    "brand": "סונול",
    "coordinates": {
      "lat": 32.82051,
      "lon": 35.40757
    }
  },
  {
    "name": "קריון",
    "brand": "סונול",
    "coordinates": {
      "lat": 32.84463,
      "lon": 35.09061
    }
  },
  {
    "name": "מפגש פלוגות",
    "brand": "סונול",
    "coordinates": {
      "lat": 31.62694,
      "lon": 34.76021
    }
  },
  {
    "name": "דנה",
    "brand": "סונול",
    "coordinates": {
      "lat": 31.97697401,
      "lon": 34.80822802
    }
  },
  {
    "name": "עמי",
    "brand": "סונול",
    "coordinates": {
      "lat": 31.987655,
      "lon": 34.768489
    }
  },
  {
    "name": "רוזנסקי ראשל\"צ",
    "brand": "סונול",
    "coordinates": {
      "lat": 31.9865287,
      "lon": 34.7721669
    }
  },
  {
    "name": "רגבה",
    "brand": "סונול",
    "coordinates": {
      "lat": 32.97782,
      "lon": 35.09427
    }
  },
  {
    "name": "צומת ביל\"ו - שומרת שבת",
    "brand": "סונול",
    "coordinates": {
      "lat": 31.872953,
      "lon": 34.819852
    }
  },
  {
    "name": "רום הפרדס - שומרת שבת",
    "brand": "סונול",
    "coordinates": {
      "lat": 31.894427,
      "lon": 34.788626
    }
  },
  {
    "name": "מכבים",
    "brand": "סונול",
    "coordinates": {
      "lat": 32.0593,
      "lon": 34.82508
    }
  },
  {
    "name": "מסעדה חוצות חרמון",
    "brand": "סונול",
    "coordinates": {
      "lat": 33.222161,
      "lon": 35.759441
    }
  },
  {
    "name": "צומת רעננה הברוש",
    "brand": "סונול",
    "coordinates": {
      "lat": 32.1809324,
      "lon": 34.8894386
    }
  },
  {
    "name": "שוהם",
    "brand": "סונול",
    "coordinates": {
      "lat": 31.986186,
      "lon": 34.937236
    }
  },
  {
    "name": "שפרעם",
    "brand": "סונול",
    "coordinates": {
      "lat": 32.82319,
      "lon": 35.15027
    }
  },
  {
    "name": "צומת עדי",
    "brand": "סונול",
    "coordinates": {
      "lat": 32.792722,
      "lon": 35.175127
    }
  },
  {
    "name": "איילון",
    "brand": "סונול",
    "coordinates": {
      "lat": 32.0797,
      "lon": 34.79557
    }
  },
  {
    "name": "משגב",
    "brand": "סונול",
    "coordinates": {
      "lat": 32.04105,
      "lon": 34.77341
    }
  },
  {
    "name": "החוף 1",
    "brand": "סונול",
    "coordinates": {
      "lat": 32.14787,
      "lon": 34.80411
    }
  },
  {
    "name": "יגאל אלון",
    "brand": "סונול",
    "coordinates": {
      "lat": 32.074681,
      "lon": 34.795835
    }
  },
  {
    "name": "גני התערוכה",
    "brand": "סונול",
    "coordinates": {
      "lat": 32.105349,
      "lon": 34.811572
    }
  },
  {
    "name": "מבוא תמרה",
    "brand": "סונול",
    "coordinates": {
      "lat": 32.85696,
      "lon": 35.1736
    }
  },
  {
    "name": "מפגש תמרה",
    "brand": "סונול",
    "coordinates": {
      "lat": 32.86228,
      "lon": 35.17032
    }
  },
  {
    "name": "אילת",
    "brand": "מיקה",
    "coordinates": {
      "lat": 29.5569,
      "lon": 34.9498
    }
  },
  {
    "name": "הפלד",
    "brand": "מיקה",
    "coordinates": {
      "lat": 32.020531,
      "lon": 34.7995286
    }
  },
  {
    "name": "גיסין",
    "brand": "מיקה",
    "coordinates": {
      "lat": 32.0984514,
      "lon": 34.8684612
    }
  },
  {
    "name": "עתידים",
    "brand": "מיקה",
    "coordinates": {
      "lat": 31.7847295,
      "lon": 35.2235982
    }
  },
  {
    "name": "רחובות",
    "brand": "מיקה",
    "coordinates": {
      "lat": 31.9039187,
      "lon": 34.7902989
    }
  },
  {
    "name": "אליאן",
    "brand": "מיקה",
    "coordinates": {
      "lat": 31.9936718,
      "lon": 34.7679142
    }
  },
  {
    "name": "פריימן",
    "brand": "מיקה",
    "coordinates": {
      "lat": 31.969,
      "lon": 34.791
    }
  },
  {
    "name": "וולפסון",
    "brand": "מיקה",
    "coordinates": {
      "lat": 32.0340897,
      "lon": 34.7699146
    }
  },
  {
    "name": "טבריה",
    "brand": "מיקה",
    "coordinates": {
      "lat": 32.7842899,
      "lon": 35.5406205
    }
  },
  {
    "name": "חיפה",
    "brand": "מיקה",
    "coordinates": {
      "lat": 32.8076186,
      "lon": 35.0574217
    }
  },
  {
    "name": "כרמיאל",
    "brand": "מיקה",
    "coordinates": {
      "lat": 32.9206223,
      "lon": 35.3133958
    }
  },
  {
    "name": "מגדל",
    "brand": "מיקה",
    "coordinates": {
      "lat": 32.8269578,
      "lon": 35.5118311
    }
  },
  {
    "name": "בית שאן",
    "brand": "מיקה",
    "coordinates": {
      "lat": 32.4943746,
      "lon": 35.4959773
    }
  },
  {
    "name": "מודיעין",
    "brand": "מיקה",
    "coordinates": {
      "lat": 31.8893287,
      "lon": 34.9635571
    }
  },
  {
    "name": "יהונתן",
    "brand": "מיקה",
    "coordinates": {
      "lat": 31.97,
      "lon": 34.77
    }
  },
  {
    "name": "עומר",
    "brand": "מיקה",
    "coordinates": {
      "lat": 31.975,
      "lon": 34.804
    }
  },
  {
    "name": "באר טוביה",
    "brand": "מיקה",
    "coordinates": {
      "lat": 31.773937,
      "lon": 34.666846
    }
  },
  {
    "name": "רום רחובות",
    "brand": "מיקה",
    "coordinates": {
      "lat": 31.89555,
      "lon": 34.7902554
    }
  },
  {
    "name": "הדרי אשקלון אבן עזרא 64 אשקלון",
    "brand": "מיקה",
    "coordinates": {
      "lat": 31.6743042,
      "lon": 34.5892539
    }
  },
  {
    "name": "אשקלון",
    "brand": "מיקה",
    "coordinates": {
      "lat": 31.6642613,
      "lon": 34.5985384
    }
  },
  {
    "name": "נתיבות",
    "brand": "מיקה",
    "coordinates": {
      "lat": 31.4233525,
      "lon": 34.600095
    }
  },
  {
    "name": "גן הפעמון",
    "brand": "מיקה",
    "coordinates": {
      "lat": 31.7505166,
      "lon": 35.2177221
    }
  },
  {
    "name": "ביאליק",
    "brand": "מיקה",
    "coordinates": {
      "lat": 32.3242605,
      "lon": 34.8505631
    }
  },
  {
    "name": "פתח תקווה",
    "brand": "מיקה",
    "coordinates": {
      "lat": 32.09,
      "lon": 34.872
    }
  },
  {
    "name": "ראשון",
    "brand": "מיקה",
    "coordinates": {
      "lat": 31.975,
      "lon": 34.793
    }
  },
  {
    "name": "הקידמה אשדוד",
    "brand": "מיקה",
    "coordinates": {
      "lat": 31.813,
      "lon": 34.649
    }
  }
]